City_ID,City,Lat,Lng,Max Temp,Humidity,Cloudiness,Wind Speed,Country,Date
0,kununurra,-15.7667,128.7333,35.99,36,75,1.54,AU,1727245656
1,prince albert,53.2001,-105.7677,8.97,87,20,1.54,CA,1727245688
2,vila franca do campo,37.7167,-25.4333,23.23,86,65,7.64,PT,1727245689
3,la ronge,55.1001,-105.2842,13.14,71,0,3.6,CA,1727245690
4,stanley,54.868,-1.6985,5.01,94,75,1.54,GB,1727245691
5,timmins,48.4669,-81.3331,14.9,94,100,2.57,CA,1727245692
6,bandon,51.7469,-8.7425,10.77,98,100,2.34,IE,1727245693
7,gizo,-8.103,156.8419,28.46,73,63,1.3,SB,1727245694
8,ust-nera,64.5667,143.2,2.83,73,91,4.26,RU,1727245585
9,alofi,-19.0595,-169.9187,22.94,78,75,3.09,NU,1727245696
10,danville,36.586,-79.395,20.21,97,100,1.54,US,1727245698
11,vilyuchinsk,52.9306,158.4028,14.15,70,98,4.57,RU,1727245699
12,kavaratti,10.5669,72.642,27.06,86,90,7.56,IN,1727245700
13,zemio,5.0314,25.1361,20.69,98,100,1.2,CF,1727245701
14,port-aux-francais,-49.35,70.2167,2.6,80,72,13.77,TF,1727245702
15,banda aceh,5.5577,95.3222,30.54,65,84,3.93,ID,1727245704
16,brisas de zicatela,15.8369,-97.0419,22.97,95,100,2.42,MX,1727245705
17,puerto armuelles,8.2833,-82.8667,24.49,91,100,2.24,PA,1727245706
18,xilin hot,43.9667,116.0333,15.35,43,0,1.34,CN,1727245708
19,abepura,-2.6333,140.5833,23.45,100,75,1.03,ID,1727245709
20,talnakh,69.4865,88.3972,4.83,81,96,3.1,RU,1727245710
21,keflavik,64.0049,-22.5624,3.24,81,40,8.23,IS,1727245711
22,nar'yan-mar,67.6713,53.087,3.2,61,85,2.74,RU,1727245712
23,grytviken,-54.2811,-36.5092,0.22,97,100,5.69,GS,1727245713
24,kataba,8.4604,-0.7732,23.8,95,82,1.38,GH,1727245714
25,avarua,-21.2078,-159.775,23.03,78,27,3.6,CK,1727245715
26,margaret river,-33.95,115.0667,17.29,44,40,5.12,AU,1727245547
27,zaozersk,69.4005,32.4476,7.47,97,100,2.77,RU,1727245718
28,esperanza,19.5847,-70.9849,21.83,98,15,2.27,DO,1727245719
29,west island,-12.1568,96.8225,29.99,74,40,4.63,CC,1727245573
30,waitangi,-43.9535,-176.5597,7.68,71,19,5.81,NZ,1727245722
31,belomorsk,64.5232,34.7668,13.08,70,100,4.69,RU,1727245723
32,iqaluit,63.7506,-68.5145,4.85,86,100,0.0,CA,1727245489
33,taltal,-25.4,-70.4833,14.16,77,2,0.63,CL,1727245725
34,turkmenbasy,40.0222,52.9552,23.43,64,75,8.75,TM,1727245726
35,noosa heads,-26.3833,153.15,21.47,65,65,6.83,AU,1727245727
36,adamstown,-25.066,-130.1015,19.8,71,98,7.91,PN,1727245652
37,cafayate,-26.073,-65.9761,16.35,61,0,1.17,AR,1727245730
38,ushuaia,-54.8,-68.3,1.81,64,75,1.54,AR,1727245636
39,choibalsan,48.0667,114.5,20.23,23,13,3.86,MN,1727245732
40,papatowai,-46.5619,169.4708,11.35,58,92,2.92,NZ,1727245733
41,soroti,1.7146,33.6111,24.04,59,36,1.14,UG,1727245734
42,atafu village,-8.5421,-172.5159,28.38,77,81,4.38,TK,1727245501
43,prince rupert,54.3161,-130.3201,10.83,87,100,7.2,CA,1727245736
44,valparaiso,-33.0393,-71.6273,9.8,71,0,2.06,CL,1727245737
45,la passe,45.5549,-0.8967,16.79,83,100,5.26,FR,1727245738
46,bethel,41.3712,-73.414,15.05,81,100,2.57,US,1727245672
47,crane,31.3974,-102.3501,25.74,53,3,4.03,US,1727245741
48,port lincoln,-34.7333,135.8667,12.93,54,99,9.67,AU,1727245635
49,la tuque,47.4334,-72.7824,13.14,71,100,2.06,CA,1727245743
50,puerto natales,-51.7236,-72.4875,3.01,73,77,8.5,CL,1727245744
51,hithadhoo,-0.6,73.0833,28.21,75,72,6.95,MV,1727245745
52,nuku'alofa,-21.1333,-175.2,21.19,94,75,2.06,TO,1727245746
53,kodiak,57.79,-152.4072,7.73,66,100,0.0,US,1727245728
54,edinburgh of the seven seas,-37.0676,-12.3116,13.15,71,39,6.13,SH,1727245748
55,korsakov,46.6328,142.7813,16.91,76,99,5.16,RU,1727245749
56,weno,7.4515,151.8468,30.97,79,75,3.09,FM,1727245750
57,san antonio de pale,-1.4014,5.6325,24.36,83,97,4.39,GQ,1727245753
58,albany,42.6001,-73.9662,14.7,68,99,0.89,US,1727245663
59,namibe,-15.1961,12.1522,19.17,84,89,2.06,AO,1727245755
60,marka,1.7159,44.7717,27.23,71,30,7.67,SO,1727245757
61,ulety,51.3572,112.4849,20.33,24,22,2.48,RU,1727245758
62,hermanus,-34.4187,19.2345,13.22,86,100,2.12,ZA,1727245567
63,katsuura,35.1333,140.3,22.84,92,100,10.99,JP,1727245760
64,susuman,62.7833,148.1667,4.9,42,44,5.26,RU,1727245763
65,cill airne,52.05,-9.5167,10.03,100,99,3.6,IE,1727245764
66,sangkhla buri,15.1555,98.4536,30.06,55,96,1.16,TH,1727245765
67,isafjordur,66.0755,-23.124,0.3,78,98,4.03,IS,1727245559
68,tegueste,28.5167,-16.3167,17.21,90,20,2.06,ES,1727245767
69,vorgashor,67.5833,63.95,1.43,76,99,9.35,RU,1727245724
70,kwolla,8.9333,9.2833,22.23,92,53,0.87,NG,1727245769
71,darasun,51.6667,114.0,21.12,23,20,4.09,RU,1727245771
72,pandan,14.0453,124.1694,30.54,69,88,3.99,PH,1727245772
73,punta arenas,-53.15,-70.9167,3.06,75,40,13.38,CL,1727245672
74,linxia chengguanzhen,35.6003,103.2064,20.68,47,0,1.63,CN,1727245774
75,riyadh,24.6877,46.7219,34.5,12,5,4.69,SA,1727245692
76,hawaiian paradise park,19.5933,-154.9731,23.73,92,40,1.54,US,1727245776
77,ilulissat,69.2167,-51.1,3.01,75,100,0.0,GL,1727245777
78,itacare,-14.2775,-38.9967,21.98,85,1,1.45,BR,1727245778
79,olonkinbyen,70.9221,-8.7187,1.18,78,29,6.24,SJ,1727245779
80,taksimo,56.3444,114.8794,16.37,42,59,1.31,RU,1727245780
81,rondonopolis,-16.4708,-54.6356,27.75,28,10,0.73,BR,1727245764
82,chernyshevskiy,63.0128,112.4714,7.72,69,100,2.74,RU,1727245783
83,ribeira grande,38.5167,-28.7,24.32,88,75,10.8,PT,1727245784
84,ola,59.5833,151.2833,7.95,51,3,5.39,RU,1727245785
85,tolanaro,-25.0319,46.9987,24.04,78,53,6.45,MG,1727245787
86,marijampole,54.5667,23.35,14.59,92,97,4.89,LT,1727245788
87,ghat,24.9647,10.1728,29.99,31,4,0.29,LY,1727245789
88,gryfino,53.2524,14.4883,14.25,85,53,5.55,PL,1727245790
89,xining,36.6167,101.7667,19.05,45,4,1.54,CN,1727245791
90,kalabo,-14.97,22.6814,24.07,32,45,4.87,ZM,1727245793
91,bredasdorp,-34.5322,20.0403,14.17,84,100,1.14,ZA,1727245494
92,wailua homesteads,22.0669,-159.378,25.44,82,20,6.17,US,1727245795
93,usinsk,65.9939,57.5281,2.44,57,9,4.82,RU,1727245796
94,petropavlovsk-kamchatsky,53.0452,158.6483,13.33,51,20,6.0,RU,1727245797
95,selfoss,63.9331,-20.9971,3.36,79,6,5.32,IS,1727245798
96,blackmans bay,-43.0167,147.3167,13.18,42,100,0.45,AU,1727245799
97,saipan,15.1355,145.701,31.39,74,75,4.12,MP,1727245802
98,aykol,38.1751,77.2132,30.04,16,0,2.5,CN,1727245803
99,al kharj,24.155,47.3346,35.32,10,5,3.83,SA,1727245804
100,constantia,44.1833,28.65,20.39,74,55,0.8,RO,1727245515
101,merizo village,13.2658,144.6691,31.31,81,32,3.99,GU,1727245806
102,kirakira,-10.4544,161.9205,26.94,85,29,3.64,SB,1727245807
103,dalby,-27.1833,151.2667,26.75,22,28,6.42,AU,1727245808
104,hanceville,34.0607,-86.7675,22.31,89,100,0.47,US,1727245809
105,belmonte,-15.8631,-38.8828,21.53,88,36,1.88,BR,1727245811
106,sao felix do xingu,-6.6447,-51.995,22.84,70,1,0.22,BR,1727245812
107,turan,16.0678,108.2208,31.99,66,20,4.12,VN,1727245813
108,madang,-5.2246,145.7966,28.59,76,32,3.94,PG,1727245814
109,soddy-daisy,35.2359,-85.1908,22.2,93,100,1.7,US,1727245815
110,woodward,36.4337,-99.3904,14.98,94,0,3.09,US,1727245816
111,usogorsk,63.4106,48.6872,6.75,75,100,1.94,RU,1727245817
112,fortuna,40.5982,-124.1573,10.51,100,0,0.0,US,1727245818
113,hamilton,39.1834,-84.5333,19.44,95,100,0.45,US,1727245819
114,sao jose da coroa grande,-8.8978,-35.1478,23.08,78,94,3.49,BR,1727245820
115,college,64.8569,-147.8028,6.15,90,75,2.06,US,1727245821
116,longyearbyen,78.2186,15.6401,-2.09,69,20,2.06,SJ,1727245823
117,nadvoitsy,63.8667,34.3167,13.17,71,100,5.36,RU,1727245824
118,canutama,-6.5339,-64.3831,25.26,55,59,1.19,BR,1727245825
119,guayaramerin,-10.8368,-65.3614,27.62,41,59,1.37,BO,1727245826
120,ratnagiri,16.9833,73.3,25.83,93,100,4.88,IN,1727245622
121,linqiong,30.4159,103.4609,31.22,46,78,1.64,CN,1727245828
122,trairi,-3.2778,-39.2689,24.41,80,17,6.25,BR,1727245632
123,margate,51.3813,1.3862,12.05,82,100,3.22,GB,1727245585
124,ceeldheer,3.8488,47.1806,29.23,57,37,9.55,SO,1727245831
125,san pedro,14.35,121.0167,33.57,62,40,3.6,PH,1727245832
126,cluain meala,52.355,-7.7039,9.17,90,100,1.48,IE,1727245834
127,cururupu,-1.8283,-44.8683,22.6,89,5,1.56,BR,1727245835
128,zapata,26.9073,-99.2714,26.06,89,0,2.06,US,1727245836
129,castillos,-34.1667,-53.8333,14.09,99,100,4.18,UY,1727245837
130,nogliki,51.8333,143.1667,13.37,73,100,3.21,RU,1727245838
131,tiksi,71.6872,128.8694,0.36,99,100,7.86,RU,1727245839
132,port saint john's,-31.6229,29.5448,21.78,71,96,4.27,ZA,1727245840
133,tanjung selor,2.8372,117.3642,24.47,98,100,1.06,ID,1727245841
134,mount pearl,47.5166,-52.7813,11.19,95,100,3.09,CA,1727245842
135,trevelin,-43.0858,-71.4639,-0.26,88,66,2.26,AR,1727245844
136,northam,51.0333,-4.2167,11.45,95,100,3.2,GB,1727245845
137,santa marta,11.2408,-74.199,27.72,80,100,2.06,CO,1727245846
138,jamestown,42.097,-79.2353,17.23,90,100,5.66,US,1727245570
139,nicoya,10.1483,-85.452,22.7,99,100,0.97,CR,1727245563
140,cam pha mines,21.0167,107.3,26.16,74,91,1.66,VN,1727245849
141,iskateley,67.6803,53.1512,3.93,57,82,3.43,RU,1727245850
142,utrik,11.2278,169.8474,28.41,75,76,3.88,MH,1727245852
143,queenstown,-31.8976,26.8753,18.85,39,33,1.35,ZA,1727245853
144,al jawf,29.5,38.75,29.85,23,0,3.12,SA,1727245855
145,wanning,18.8003,110.3967,29.84,71,59,4.21,CN,1727245856
146,minas de marcona,-15.2119,-75.1103,9.92,91,80,5.42,PE,1727245857
147,taraz,42.9,71.3667,20.23,28,100,3.0,KZ,1727245844
148,khandyga,62.6667,135.6,6.79,70,39,1.22,RU,1727245861
149,beledweyne,4.7358,45.2036,30.66,37,82,7.45,SO,1727245862
150,mila doce,26.2262,-97.9589,27.88,93,0,0.0,US,1727245863
151,tongouson,5.0214,120.1328,29.0,68,46,1.42,PH,1727245864
152,katsina-ala,7.1667,9.2833,23.74,90,56,0.69,NG,1727245865
153,san martin de los andes,-40.1604,-71.3486,-1.82,92,100,2.82,AR,1727245866
154,poduri,46.4667,26.5333,14.25,49,63,2.25,RO,1727245867
155,nova sintra,14.8667,-24.7167,27.38,79,100,3.19,CV,1727245868
156,bambari,5.768,20.6757,24.51,82,71,1.27,CF,1727245869
157,aasiaat,68.7098,-52.8699,1.84,86,100,4.62,GL,1727245871
158,fukuecho,32.6881,128.8419,25.2,83,75,4.63,JP,1727245872
159,antofagasta,-23.65,-70.4,14.6,88,71,0.4,CL,1727245811
160,union,40.6334,-74.2663,17.97,73,100,3.6,US,1727245874
161,lubang,13.8584,120.124,29.55,75,100,1.73,PH,1727245875
162,afaahiti,-17.75,-149.2833,25.08,75,13,2.48,PF,1727245876
163,boa vista,2.8197,-60.6733,25.99,73,40,1.54,BR,1727245868
164,lebu,-37.6167,-73.65,7.42,84,38,6.86,CL,1727245879
165,sheffield lake,41.4875,-82.1015,20.67,94,0,4.12,US,1727245880
166,nova xavantina,-14.6667,-52.35,25.69,34,5,1.03,BR,1727245881
167,collie,-33.3667,116.15,19.82,32,66,3.61,AU,1727245882
168,shalya,57.2471,58.7298,8.23,53,11,4.48,RU,1727245883
169,yuzhno-kurilsk,44.0306,145.8556,15.5,68,94,6.13,RU,1727245884
170,santiago de la pena,20.95,-97.4,24.33,92,100,1.9,MX,1727245885
171,sedalia,38.7045,-93.2283,14.95,82,0,1.54,US,1727245887
172,salalah,17.0151,54.0924,27.37,69,59,2.86,OM,1727245770
173,canmore,51.0834,-115.3521,15.71,100,35,3.09,CA,1727245889
174,salinopolis,-0.6136,-47.3561,25.52,84,6,5.05,BR,1727245890
175,karratha,-20.7377,116.8463,28.15,50,0,6.26,AU,1727245891
176,gebeit,21.0667,36.3167,33.18,25,5,2.25,SD,1727245892
177,kalymnos,36.95,26.9833,23.74,64,0,3.6,GR,1727245893
178,hajjah,15.6943,43.6058,26.43,44,15,2.47,YE,1727245894
179,bealanana,-14.55,48.7333,24.51,20,0,4.15,MG,1727245895
180,al khafji,28.4391,48.4913,36.29,32,0,9.99,SA,1727245897
181,bilibino,68.0546,166.4372,-2.03,81,100,1.46,RU,1727245898
182,laoag,18.1989,120.5936,31.95,74,75,2.06,PH,1727245899
183,whitehorse,60.7161,-135.0538,7.43,70,75,4.12,CA,1727245900
184,trapani,37.8333,12.6667,21.3,88,20,5.66,IT,1727245901
185,yellowknife,62.456,-114.3525,8.01,98,100,1.54,CA,1727245902
186,alesund,62.4723,6.1549,10.97,76,75,7.2,NO,1727245903
187,alice springs,-23.7,133.8833,27.75,42,100,3.6,AU,1727245904
188,aykhal,66.0,111.5,5.6,64,86,6.99,RU,1727245905
189,itamaraca,-7.7478,-34.8256,23.94,72,82,4.67,BR,1727245907
190,grand falls-windsor,48.9332,-55.6649,8.61,93,100,3.2,CA,1727245908
191,hobyo,5.3505,48.5268,28.23,63,62,10.46,SO,1727245909
192,uturoa,-16.7333,-151.4333,26.78,74,30,4.02,PF,1727245910
193,mananjary,-21.2167,48.3333,25.69,67,10,2.12,MG,1727245911
194,fort st. john,56.2499,-120.8529,10.94,71,75,3.09,CA,1727245912
195,anadyr,64.75,177.4833,5.28,80,0,6.0,RU,1727245913
196,tazovsky,67.4667,78.7,3.09,96,100,6.53,RU,1727245914
197,ancud,-41.8697,-73.8203,3.49,77,7,1.18,CL,1727245915
198,aranda de duero,41.6704,-3.6892,14.33,83,100,3.54,ES,1727245787
199,jinjiang,24.8198,118.5741,28.89,82,100,2.73,CN,1727245918
200,new norfolk,-42.7826,147.0587,13.84,49,100,3.91,AU,1727245919
201,gadzhiyevo,69.2551,33.3362,7.93,96,100,4.37,RU,1727245920
202,klaksvik,62.2266,-6.589,6.45,81,100,7.01,FO,1727245921
203,bodo,67.28,14.405,4.87,87,0,4.12,NO,1727245922
204,bardai,11.65,7.2333,22.96,83,40,3.62,NG,1727245923
205,kourou,5.1552,-52.6478,25.31,85,100,2.52,GF,1727245924
206,gaalkacyo,6.7697,47.4308,30.44,39,65,9.84,SO,1727245925
207,puerto ayora,-0.7393,-90.3518,19.19,95,100,0.89,EC,1727245874
208,hailey,43.5196,-114.3153,16.07,62,0,3.6,US,1727245928
209,veinticinco de mayo,-35.4323,-60.1727,7.77,100,1,0.45,AR,1727245929
210,chonchi,-42.6128,-73.8092,1.73,91,9,1.19,CL,1727245930
211,sinabang,2.4803,96.3801,29.15,73,100,1.84,ID,1727245931
212,nueva gerona,21.8833,-82.8,26.7,87,100,11.5,CU,1727245932
213,mragowo,53.8644,21.3051,16.1,71,0,6.24,PL,1727245933
214,novo lino,-8.915,-35.6467,21.52,85,100,1.3,BR,1727245934
215,cole harbour,44.6724,-63.4751,14.4,87,86,3.09,CA,1727245935
216,jau,-22.2964,-48.5578,21.59,44,0,2.19,BR,1727245936
217,turpan,42.9333,89.1667,32.35,20,0,2.45,CN,1727245938
218,hadibu,12.65,54.0333,26.84,79,95,8.29,YE,1727245939
219,derzhavinsk,51.1,66.3167,10.58,42,13,3.7,KZ,1727245940
220,daru,-9.0763,143.2092,26.57,83,96,5.59,PG,1727245941
221,dudinka,69.4058,86.1778,4.94,67,100,4.46,RU,1727245942
222,quibala,-10.7337,14.98,24.53,49,82,1.41,AO,1727245943
223,port elizabeth,-33.918,25.5701,17.4,98,100,1.03,ZA,1727245944
224,whakatane,-37.9585,176.9854,11.26,77,0,2.18,NZ,1727245945
225,sassandra,4.95,-6.0833,23.69,91,80,0.53,CI,1727245947
226,alaghsas,17.0187,8.0168,26.94,50,0,2.06,NE,1727245948
227,el porvenir,13.7617,-87.3458,22.37,98,100,0.69,HN,1727245949
228,tingo maria,-9.2895,-76.0088,21.26,71,8,0.98,PE,1727245950
229,howrah,22.5892,88.3103,27.0,94,100,3.6,IN,1727245952
230,mossel bay,-34.1831,22.146,15.96,87,100,2.34,ZA,1727245953
231,sann,26.0418,68.1378,39.74,25,7,3.88,PK,1727245954
232,nayudupet,13.9,79.9,34.25,47,100,5.57,IN,1727245955
233,zahir pir,28.8124,70.524,42.3,19,5,4.03,PK,1727245956
234,ruzayevka,54.0639,44.9509,15.8,27,22,4.51,RU,1727245957
235,laguna,38.421,-121.4238,22.35,58,0,3.09,US,1727245959
236,arti,56.4234,58.5328,9.16,54,6,4.55,RU,1727245960
237,mariehamn,60.0973,19.9348,15.92,94,75,8.75,AX,1727245798
238,erechim,-27.6342,-52.2739,19.15,66,5,1.95,BR,1727245789
239,jeddah,21.5169,39.2192,31.92,58,0,5.14,SA,1727245937
240,ambon,-3.6954,128.1814,30.08,70,40,2.57,ID,1727245964
241,bardsir,29.9227,56.5743,28.48,8,0,3.38,IR,1727245965
242,corner brook,48.9667,-57.9484,8.63,92,100,1.88,CA,1727245830
243,warnes,-17.5,-63.1667,27.27,78,0,3.09,BO,1727245967
244,alliance,40.9153,-81.1059,19.25,94,100,4.41,US,1727245810
245,mangai,-4.05,19.5333,25.41,80,29,1.53,CD,1727245970
246,galle,6.0367,80.217,29.4,83,98,1.34,LK,1727245971
247,fort mcmurray,56.7268,-111.381,10.77,76,100,2.06,CA,1727245972
248,impfondo,1.6381,18.0667,23.11,92,100,1.27,CG,1727245973
249,pisco,-13.7,-76.2167,16.03,82,100,1.03,PE,1727245974
250,tvoroyri,61.5556,-6.8111,7.06,71,100,6.4,FO,1727245976
251,sathupalli,17.2497,80.869,28.01,83,100,3.08,IN,1727245977
252,sos'va,59.1766,61.8558,8.1,46,32,4.76,RU,1727245978
253,hammerfest,70.6634,23.6821,5.25,70,0,1.03,NO,1727245979
254,theodore,30.5477,-88.1753,24.34,91,0,0.0,US,1727245980
255,ar rutbah,33.0381,40.2848,28.12,28,0,1.55,IQ,1727245981
256,port alfred,-33.5906,26.891,19.54,89,100,2.95,ZA,1727245795
257,ko samui,9.5357,99.9357,31.95,70,20,2.57,TH,1727245985
258,malvan,16.0667,73.4667,26.32,88,100,5.23,IN,1727245986
259,makokou,0.5738,12.8642,22.65,91,100,0.91,GA,1727245987
260,adre,13.4667,22.2,26.54,66,9,3.16,TD,1727245988
261,guangshui,31.6199,113.9978,31.64,27,100,0.69,CN,1727245989
262,mozarlandia,-14.7447,-50.5706,27.69,31,12,1.68,BR,1727245991
263,floro,61.5996,5.0328,9.98,62,40,5.14,NO,1727245992
264,scalea,39.813,15.7956,22.57,68,100,0.69,IT,1727245993
265,zhangzhou,24.5133,117.6556,30.44,76,100,1.25,CN,1727245994
266,qaqortoq,60.7167,-46.0333,4.23,96,80,1.58,GL,1727245996
267,at taj,24.2049,23.2857,30.63,27,0,4.95,LY,1727245997
268,ouesso,1.6136,16.0517,24.62,80,86,1.46,CG,1727245998
269,mount gambier,-37.8333,140.7667,8.55,87,8,5.45,AU,1727245999
270,reggane,26.7158,0.1714,29.72,41,100,2.93,DZ,1727246000
271,quellon,-43.1167,-73.6167,3.34,82,9,2.64,CL,1727245974
272,bridgewater,44.3835,-64.5155,15.82,77,93,6.17,CA,1727246002
273,dauphin,51.1494,-100.0502,18.08,63,0,6.17,CA,1727246003
274,berdigestyakh,62.0989,126.6992,13.72,55,27,3.03,RU,1727245993
275,eraan,9.0629,117.7016,27.62,80,100,0.38,PH,1727246005
276,urengoy,65.9667,78.3667,2.56,98,100,5.82,RU,1727246008
277,bukoba,-1.3317,31.8122,26.64,51,62,3.31,TZ,1727246009
278,kidal,18.4411,1.4078,32.2,30,26,2.7,ML,1727246010
279,lorengau,-2.0226,147.2712,28.79,75,100,4.2,PG,1727246011
280,thompson,55.7435,-97.8558,7.09,100,0,0.0,CA,1727246013
281,bodaybo,57.8506,114.1933,16.82,51,92,0.32,RU,1727246014
282,invercargill,-46.4,168.35,12.23,61,100,4.47,NZ,1727246017
283,dhidhdhoo,6.8833,73.1,27.96,80,100,8.53,MV,1727246018
284,shingu,33.7333,135.9833,24.73,62,99,1.73,JP,1727246020
285,olinda,-8.0089,-34.8553,24.85,73,40,4.63,BR,1727246021
286,hotan,37.0997,79.9269,30.74,11,0,2.59,CN,1727245820
287,tateyama,34.9833,139.8667,22.96,78,75,7.2,JP,1727246023
288,hirara,24.8,125.2833,31.15,79,75,5.14,JP,1727246024
289,altay,47.8667,88.1167,17.19,30,99,4.84,CN,1727246026
290,xishan,27.6667,113.5,28.22,61,98,1.28,CN,1727246027
291,nikolayevsk-on-amure,53.1406,140.73,15.3,66,100,1.93,RU,1727246028
292,bubaque,11.2833,-15.8333,26.07,83,100,4.58,GW,1727246030
293,kalmunai,7.4167,81.8167,33.01,53,100,6.64,LK,1727246031
294,palikir - national government center,6.9248,158.1611,28.47,84,100,2.57,FM,1727246032
295,ghormach,35.7306,63.7826,31.98,14,0,2.31,AF,1727246033
296,faya-largeau,17.9257,19.1043,36.71,19,0,9.21,TD,1727246034
297,luanda,-8.8368,13.2343,23.0,83,75,2.06,AO,1727245751
298,raja,8.4596,25.678,23.9,80,46,1.78,SS,1727246037
299,sitka,57.0531,-135.33,9.94,87,100,1.54,US,1727246038
300,klyuchi,52.2667,79.1667,11.07,38,99,5.57,RU,1727246039
301,rongelap,11.1635,166.8941,28.85,71,71,2.53,MH,1727246040
302,machiques,10.0644,-72.545,24.63,82,100,2.13,VE,1727246042
303,sodankyla,67.4167,26.6,10.87,99,100,2.7,FI,1727245892
304,ad dawadimi,24.5077,44.3924,33.64,12,0,5.95,SA,1727246045
305,cheyenne,41.14,-104.8203,11.08,56,0,4.12,US,1727245875
306,el calafate,-50.3408,-72.2768,-0.56,69,47,2.8,AR,1727246047
307,sittwe,20.15,92.9,27.61,84,100,4.91,MM,1727246048
308,nha trang,12.25,109.1833,32.0,63,40,3.53,VN,1727246049
309,langepas,61.2544,75.2124,2.52,79,100,8.02,RU,1727246050
310,kapuskasing,49.4169,-82.4331,14.05,100,100,1.54,CA,1727246051
311,monte patria,-30.6919,-70.9467,12.57,64,0,0.99,CL,1727246052
312,tionk essil,12.7856,-16.5217,23.13,95,100,1.37,SN,1727245996
313,solnechnyy,50.7214,136.6319,14.05,68,100,1.58,RU,1727246055
314,tsiombe,-25.3,45.4833,28.18,51,14,3.23,MG,1727246056
315,masyaf,35.0653,36.3406,25.59,44,0,1.39,SY,1727246057
316,colonia,50.9333,6.95,15.54,85,100,3.6,DE,1727246058
317,happy valley-goose bay,53.3168,-60.3315,2.17,100,0,2.06,CA,1727246059
318,san angelo,31.4638,-100.437,22.16,84,0,0.45,US,1727245929
319,kinablangan,7.6947,126.5503,27.67,75,100,2.16,PH,1727246061
320,shaydon,40.6747,70.346,26.76,19,1,2.37,TJ,1727246063
321,nantucket,41.2835,-70.0995,16.06,82,100,5.68,US,1727245896
322,broken hill,-31.95,141.4333,15.72,77,100,6.44,AU,1727246065
323,bakaly,55.1789,53.8028,12.42,40,9,2.65,RU,1727246066
324,issia,6.4922,-6.5856,21.78,99,100,0.55,CI,1727246067
325,songea,-10.6833,35.65,21.19,57,99,1.16,TZ,1727246068
326,vadso,70.0744,29.7487,7.09,81,0,3.09,NO,1727246069
327,arraial do cabo,-22.9661,-42.0278,22.51,89,5,13.32,BR,1727246070
328,marsh harbour,26.5412,-77.0636,27.96,74,100,7.05,BS,1727246071
329,st. john's,47.5649,-52.7093,11.65,95,100,5.36,CA,1727246073
330,ta`u,-14.2336,-169.5144,26.69,80,28,5.83,AS,1727245960
331,solleftea,63.1667,17.2667,12.92,98,100,1.88,SE,1727246075
332,nadym,65.5333,72.5167,1.3,97,100,9.3,RU,1727246076
333,ghadamis,30.1337,9.5007,28.22,41,68,3.24,LY,1727245806
334,enewetak,11.3474,162.3373,29.11,71,100,2.58,MH,1727246078
335,tisul',55.7611,88.3122,6.31,58,100,7.26,RU,1727246079
336,tofol,5.3248,163.0078,28.88,84,75,1.03,FM,1727246080
337,jayapura,-2.5333,140.7,23.66,79,98,1.7,ID,1727246082
338,kerikeri,-35.2268,173.9474,11.19,78,100,0.66,NZ,1727246084
339,vilyuysk,63.7553,121.6247,13.32,66,100,2.32,RU,1727246085
340,susanville,40.4163,-120.653,17.68,33,6,1.77,US,1727246086
341,tura,25.5198,90.2201,24.38,98,100,1.42,IN,1727245962
342,corinto,37.9407,22.9573,23.83,55,21,2.01,GR,1727246088
343,beloyarskiy,63.7119,66.6722,3.65,66,100,7.4,RU,1727246090
344,charlotte amalie,18.3419,-64.9307,27.85,89,0,3.09,VI,1727246091
345,cidreira,-30.1811,-50.2056,18.39,97,100,6.84,BR,1727246046
346,mont-tremblant,46.1949,-74.6264,13.77,72,100,1.54,CA,1727245828
347,fada,7.25,4.0667,25.37,94,75,4.12,NG,1727246095
348,paramonga,-10.6667,-77.8333,16.82,92,78,4.25,PE,1727246096
349,ormara,25.2088,64.6357,26.45,85,64,6.19,PK,1727246097
350,korla,41.7597,86.1469,27.47,24,85,3.73,CN,1727246098
351,lazaro cardenas,17.9583,-102.2,24.52,88,100,0.99,MX,1727246099
352,male,4.1748,73.5089,30.97,74,40,10.29,MV,1727246100
353,ribeira brava,32.65,-17.0667,22.62,77,63,1.18,PT,1727246101
354,tshabong,-26.05,22.45,25.25,10,79,1.52,BW,1727246102
355,chibougamau,49.9168,-74.3659,12.79,88,100,3.6,CA,1727246062
356,castro de rei,42.7167,-7.5667,12.16,85,100,2.09,ES,1727246105
357,nizhniy kuranakh,58.8353,125.4869,15.75,56,26,1.82,RU,1727246106
358,carnarvon,-24.8667,113.6333,24.77,47,0,8.16,AU,1727246107
359,bikenibeu village,1.3673,173.1241,29.98,70,20,1.54,KI,1727246108
360,santa elena de uairen,4.6167,-61.1333,20.06,84,100,0.72,VE,1727246109
361,san agustin de valle fertil,-30.6335,-67.4682,15.6,33,0,1.9,AR,1727246110
362,bonanza,14.0289,-84.591,22.17,100,100,1.09,NI,1727246111
363,pangody,65.85,74.4859,1.36,97,100,7.22,RU,1727246112
364,guerrero negro,27.9769,-114.0611,18.15,91,1,5.12,MX,1727246113
365,fremantle,-32.05,115.7667,23.1,36,7,4.12,AU,1727246115
366,porto novo,6.4965,2.6036,25.9,84,84,2.1,BJ,1727246116
367,motueka,-41.1333,173.0167,8.74,78,99,0.94,NZ,1727246117
368,georgetown,5.4112,100.3354,30.97,70,20,5.36,MY,1727245839
369,bangor,54.6534,-5.669,8.73,96,40,2.06,GB,1727246119
370,bayanhongor,46.7167,100.1167,11.45,30,86,3.34,MN,1727246120
371,port mathurin,-19.6833,63.4167,22.35,76,1,8.83,MU,1727246121
372,luanco,43.6152,-5.7934,16.99,89,100,1.34,ES,1727246122
373,suva,-18.1416,178.4415,23.71,78,40,3.09,FJ,1727246124
374,mahibadhoo,3.7833,72.9667,28.02,77,56,9.06,MV,1727246125
375,el oued,33.3561,6.8632,23.83,69,40,4.63,DZ,1727246126
376,praia da vitoria,38.7333,-27.0667,24.14,88,75,7.7,PT,1727246093
377,coahuayana de hidalgo,18.7,-103.6583,25.7,94,100,1.83,MX,1727246129
378,callao,-12.0667,-77.15,17.62,88,100,5.14,PE,1727245892
379,kayangel,8.0823,134.7173,29.0,74,90,4.46,PW,1727246132
380,karangampel,-6.4622,108.4519,30.19,62,24,5.71,ID,1727246133
381,vanimo,-2.6741,141.3028,28.94,69,100,2.77,PG,1727246134
382,fountain hills,33.6117,-111.7174,32.37,15,0,4.12,US,1727246135
383,villa gesell,-37.2639,-56.973,11.16,77,0,2.95,AR,1727246097
384,tanout,14.9709,8.8879,27.54,45,0,4.1,NE,1727246137
385,bamboo flat,11.7,92.7167,31.05,70,40,6.17,IN,1727246138
386,sinop,41.7711,34.8709,20.64,58,3,1.13,TR,1727245993
387,manokwari,-0.8667,134.0833,28.45,74,52,2.69,ID,1727246141
388,udachny,66.4167,112.4,6.77,66,100,6.51,RU,1727246142
389,hojo,33.9766,132.7777,27.96,69,75,6.17,JP,1727246143
390,kishanpur,25.65,81.0167,34.78,51,85,6.02,IN,1727246144
391,balakhta,55.38,91.6,7.59,58,100,7.1,RU,1727246145
392,abdulino,53.7,53.6667,11.97,35,17,0.76,RU,1727246045
393,tucuma,-0.1833,-50.05,24.93,84,4,2.81,BR,1727246147
394,borogontsy,62.6683,131.1683,10.62,48,93,3.12,RU,1727246148
395,naze,28.3667,129.4833,25.51,85,69,7.58,JP,1727246149
396,lake geneva,42.5917,-88.4334,13.81,99,40,0.89,US,1727246151
397,taro,-8.3862,115.28,25.33,72,100,1.76,ID,1727246152
398,keetmanshoop,-26.5833,18.1333,19.51,16,10,3.09,NA,1727246153
399,badger,64.8,-147.5333,6.14,92,100,2.06,US,1727246154
400,an nimas,19.1455,42.1201,23.31,21,9,1.08,SA,1727246155
401,takoradi,4.8845,-1.7554,24.78,89,55,2.44,GH,1727245996
402,crixas,-14.5489,-49.9692,28.75,28,84,1.58,BR,1727246157
403,amga,60.8953,131.9608,10.86,60,16,2.04,RU,1727246158
404,ashland,40.8167,-82.2665,19.43,93,91,3.71,US,1727246159
405,ambodifotatra,-16.9833,49.85,27.03,57,20,3.09,MG,1727246160
406,fuman,37.2273,49.3142,22.72,82,77,1.58,IR,1727246162
407,kushiro,42.975,144.3747,18.53,68,75,3.6,JP,1727246163
408,cooper's town,26.8667,-77.5167,28.21,72,100,7.75,BS,1727246164
409,ntoum,0.3833,9.7833,25.36,86,79,1.47,GA,1727245875
410,kingston,17.997,-76.7936,28.53,84,20,6.17,JM,1727246166
411,murnau am staffelsee,47.6809,11.2013,11.85,87,6,1.33,DE,1727246167
412,lihue,21.9789,-159.3672,25.77,80,20,6.17,US,1727246168
413,portland,45.5234,-122.6762,22.97,75,20,1.54,US,1727246169
414,kwadukuza,-29.3282,31.2895,23.06,66,8,4.29,ZA,1727246170
415,inari,68.906,27.0288,5.5,94,100,1.25,FI,1727246172
416,acarau,-2.8856,-40.12,24.46,81,64,7.8,BR,1727246173
417,yigo village,13.5361,144.8886,30.62,77,0,5.14,GU,1727246174
418,angaur state,6.906,134.13,29.26,71,100,3.99,PW,1727246175
419,linares,-35.85,-71.6,3.17,99,1,2.85,CL,1727246004
420,monticello,45.3055,-93.7941,13.24,93,0,0.0,US,1727246178
421,anna regina,7.2644,-58.5077,26.78,79,6,2.62,GY,1727246179
422,onega,63.9061,38.1404,12.51,62,100,4.87,RU,1727246180
423,papao,-17.75,-149.55,26.48,74,43,3.72,PF,1727246181
424,caleta de carquin,-11.0925,-77.6267,16.74,91,61,5.07,PE,1727246183
425,sao gabriel da cachoeira,-0.1303,-67.0892,22.15,95,70,0.85,BR,1727246184
426,kismayo,-0.3582,42.5454,27.69,64,16,7.61,SO,1727246185
427,yorkton,51.2167,-102.4677,15.91,67,0,4.63,CA,1727246186
428,semporna,4.4818,118.6112,28.12,80,100,2.44,MY,1727246187
429,washington court house,39.5364,-83.4391,19.14,96,40,3.09,US,1727246188
430,ujae,8.9322,165.7642,29.04,72,4,2.92,MH,1727246190
431,macau,22.2006,113.5461,33.73,79,40,5.14,MO,1727245940
432,cabo san lucas,22.8909,-109.9124,27.64,51,9,4.92,MX,1727246192
433,wladyslawowo,54.7909,18.4009,15.52,77,13,7.86,PL,1727246194
434,saynshand,44.8824,110.1163,18.42,34,58,5.77,MN,1727246195
435,boulder city,35.9786,-114.8325,25.86,14,0,0.61,US,1727246183
436,bengkulu,-3.8004,102.2655,26.94,74,100,0.88,ID,1727245916
437,holualoa,19.6228,-155.9522,23.24,89,46,1.47,US,1727246198
438,haimen,23.1935,116.6142,29.36,80,100,3.63,CN,1727246199
439,freeport,40.6576,-73.5832,16.99,78,75,3.6,US,1727246200
440,bueno brandao,-22.4408,-46.3508,17.58,50,0,3.32,BR,1727246201
441,gimbi,9.1667,35.8333,17.84,83,36,0.92,ET,1727246202
442,qusmuryn,52.4503,64.6311,11.01,41,7,3.44,KZ,1727246205
443,chhabra,24.6667,76.8333,33.43,54,28,3.06,IN,1727246206
444,itanhem,-17.1664,-40.33,20.54,85,74,2.0,BR,1727246207
445,mejit,10.2753,170.8646,28.47,72,8,3.02,MH,1727246208
446,teknaf,20.8624,92.3058,25.97,92,100,5.27,BD,1727246209
447,kargasok,59.0556,80.8572,3.51,66,100,6.2,RU,1727246210
448,lompoc,34.6391,-120.4579,15.51,88,20,1.54,US,1727246211
449,hailar,49.2,119.7,18.24,35,4,2.48,CN,1727246212
450,codrington,-38.2667,141.9667,9.12,79,100,7.38,AU,1727246213
451,verkhnevilyuysk,63.4453,120.3167,12.74,73,100,1.99,RU,1727246215
452,tomohon,1.3346,124.8392,27.52,45,94,0.44,ID,1727246216
453,hilo,19.7297,-155.09,23.85,91,40,1.54,US,1727246217
454,haiku-pauwela,20.9219,-156.3051,25.67,70,0,7.72,US,1727246219
455,fort stockton,30.894,-102.8793,23.75,64,0,4.63,US,1727246220
456,banff,51.1762,-115.5698,15.21,63,0,3.09,CA,1727246223
457,cobija,-11.0267,-68.7692,24.63,66,11,1.36,BO,1727246224
458,lielvarde,56.7207,24.8074,14.99,76,100,4.87,LV,1727246225
459,opochka,56.7105,28.6617,18.92,50,100,5.32,RU,1727246226
460,kapa'a,22.0752,-159.319,26.18,79,20,6.17,US,1727246227
461,namsos,64.4662,11.4957,5.95,93,75,0.0,NO,1727246228
462,at taraf,25.3628,49.725,37.3,19,1,8.76,SA,1727246229
463,salekhard,66.53,66.6019,4.18,58,100,8.19,RU,1727246230
464,novokruchininskiy,51.7833,113.7667,21.18,23,30,3.95,RU,1727246231
465,baise city,23.8997,106.6133,30.13,57,98,1.57,CN,1727246232
466,nizhnevartovsk,60.9344,76.5531,2.01,87,75,5.0,RU,1727246234
467,sarmiento,-45.5882,-69.07,3.34,60,0,8.87,AR,1727246235
468,aitape,-3.1374,142.3475,28.28,81,100,3.73,PG,1727246236
469,kavieng,-2.5744,150.7967,29.37,72,11,5.69,PG,1727246237
470,alo,6.5486,4.2686,24.56,93,75,0.49,NG,1727246238
471,sretensk,52.2453,117.7093,21.22,24,59,2.65,RU,1727246239
472,talcahuano,-36.7167,-73.1167,7.82,87,20,2.57,CL,1727246132
473,dokkum,53.3222,5.997,14.43,84,100,2.57,NL,1727246241
474,saint-philippe,-21.3585,55.7679,24.31,66,1,3.84,RE,1727246243
475,nova vicosa,-17.8919,-39.3719,22.24,86,14,2.52,BR,1727246244
476,tocopilla,-22.092,-70.1979,16.11,79,19,2.55,CL,1727246245
477,el granada,37.5027,-122.4694,16.35,91,100,4.12,US,1727246246
478,sandpoint,48.2766,-116.5533,14.84,85,6,1.34,US,1727246247
479,kiunga,-6.1219,141.2906,26.58,96,87,0.92,PG,1727246248
480,mogocha,53.7333,119.7667,17.47,35,50,3.21,RU,1727246115
481,gulf breeze,30.3571,-87.1639,27.22,89,75,2.06,US,1727246250
482,nurota,40.5614,65.6886,27.16,16,56,7.93,UZ,1727246252
483,suomussalmi,64.8869,28.9078,11.88,90,100,4.17,FI,1727246253
484,honefoss,60.168,10.2565,11.56,96,100,1.43,NO,1727246254
485,geraldton,-28.7667,114.6,28.23,26,0,5.66,AU,1727246255
486,tangalle,6.024,80.7911,31.81,60,100,8.03,LK,1727246257
487,yeniseysk,58.4497,92.1703,6.41,73,100,4.19,RU,1727246258
488,ciudad lazaro cardenas,17.9583,-102.2,24.52,88,100,0.99,MX,1727246259
489,la sarre,48.8002,-79.1996,13.12,95,100,4.71,CA,1727246082
490,urumqi,43.801,87.6005,23.53,36,0,4.0,CN,1727246261
491,lyantor,61.6195,72.1555,2.07,72,100,11.84,RU,1727246262
492,tsetserleg,47.475,101.4542,16.79,22,87,3.51,MN,1727246264
493,ichnya,50.8626,32.3942,21.7,34,8,4.55,UA,1727246265
494,east london,-33.0153,27.9116,18.52,88,0,3.6,ZA,1727246266
495,polyarnyy,69.1989,33.4478,7.82,95,100,5.17,RU,1727245996
496,erdenet,49.0333,104.0833,17.51,31,9,5.57,MN,1727246268
497,kafir qala,34.6667,61.0667,31.49,17,0,11.98,AF,1727246269
498,zaysan,47.4667,84.8667,15.24,30,96,4.73,KZ,1727246270
499,calama,-22.4667,-68.9333,8.27,17,0,7.2,CL,1727246271
500,chernyshevsk,52.5243,117.0174,19.25,29,19,3.75,RU,1727246272
501,maramba,-5.05,38.6167,23.89,46,85,1.97,TZ,1727246273
502,rakops,-21.0167,24.3333,27.33,31,0,3.19,BW,1727246275
503,oranjemund,-28.55,16.4333,13.25,87,13,1.69,NA,1727246276
504,sola,-13.8833,167.55,27.37,78,75,3.09,VU,1727246278
505,salaqi,40.5414,110.5108,20.23,46,79,1.19,CN,1727246279
506,nuuk,64.1835,-51.7216,1.34,100,100,1.54,GL,1727246281
507,bingol,38.8847,40.4939,16.29,63,0,1.03,TR,1727246282
508,wahpeton,46.2652,-96.6059,10.01,100,0,2.06,US,1727246284
509,nagqu,31.5,92.0,12.89,19,100,1.31,CN,1727246285
510,ballina,-28.8667,153.5667,21.01,69,79,8.76,AU,1727246286
511,el bauga,18.262,33.9081,37.34,16,7,4.0,SD,1727246287
512,leava,-14.3,-178.1667,26.09,82,56,9.78,WF,1727246288
513,tenno,39.9,139.9667,23.84,64,0,8.68,JP,1727246289
514,regina,50.4501,-104.6178,13.06,74,0,4.12,CA,1727246109
515,freetown,8.484,-13.2299,23.84,100,75,4.63,SL,1727246291
516,qamdo,31.1667,97.2333,15.34,28,100,2.44,CN,1727246292
517,yarmouth,41.7057,-70.2286,16.03,90,100,4.12,US,1727246293
518,gorodoviki,46.1353,41.9656,20.24,50,14,6.74,RU,1727246295
519,fort bragg,35.139,-79.006,24.91,91,75,1.54,US,1727246081
520,mkushi,-13.6202,29.3939,25.24,27,25,3.37,ZM,1727246297
521,oum hadjer,13.2954,19.6966,27.95,61,100,2.68,TD,1727246298
522,inhambane,-23.865,35.3833,24.99,65,20,4.12,MZ,1727246299
523,leon,21.1167,-101.6667,20.03,83,2,1.83,MX,1727246087
524,oxkutzkab,20.3,-89.4167,23.75,98,100,1.93,MX,1727246137
525,harnai,30.1005,67.9374,33.05,25,0,2.6,PK,1727246302
526,jiuquan,39.7432,98.5174,24.8,26,100,3.94,CN,1727246304
527,darab,28.7519,54.5444,36.29,7,0,0.91,IR,1727246305
528,puerto baquerizo moreno,-0.9,-89.6,19.77,83,100,4.79,EC,1727246306
529,sebeta,8.9167,38.6167,18.55,65,9,0.86,ET,1727246307
530,wattegama,6.7989,81.4808,37.98,31,31,6.24,LK,1727246308
531,obolo-eke (1),6.8833,7.6333,23.33,89,40,0.88,NG,1727246309
532,bethanie,-26.4833,17.15,24.37,14,84,3.69,NA,1727246310
533,ondjiva,-17.0667,15.7333,23.02,56,9,3.6,AO,1727246312
534,yaring,6.8662,101.3689,30.42,65,31,2.78,TH,1727246313
535,suoyarvi,62.0833,32.35,14.34,68,100,4.31,RU,1727246315
536,enshi,30.3,109.4833,28.68,54,100,0.34,CN,1727246316
537,los llanos de aridane,28.6585,-17.9182,18.96,87,0,4.12,ES,1727246317
538,as sulayyil,20.4607,45.5779,35.95,15,0,0.55,SA,1727246318
539,silifke,36.3778,33.9344,28.33,44,0,0.42,TR,1727246319
540,laojunmiao,39.8333,97.7333,18.95,36,100,1.66,CN,1727246321
541,pacific grove,36.6177,-121.9166,14.81,96,100,3.58,US,1727246322
542,saquarema,-22.92,-42.5103,20.46,92,4,5.83,BR,1727246323
543,vung tau,10.346,107.0843,28.18,74,13,3.29,VN,1727246324
544,krasnokholm,51.5979,54.1567,13.62,30,1,4.34,RU,1727246325
545,qujing,25.4833,103.7833,22.99,56,100,3.6,CN,1727246327
546,yaren,-0.5472,166.916,28.92,68,100,3.27,NR,1727246328
547,contamana,-7.3333,-75.0167,24.17,72,100,0.9,PE,1727246329
548,dunedin,-45.8742,170.5036,9.89,82,100,4.02,NZ,1727246330
549,saldanha,-33.0117,17.9442,12.03,87,100,5.71,ZA,1727246331
550,moroni,-11.7022,43.2551,25.54,75,28,1.45,KM,1727246332
551,port douglas,-16.4833,145.4667,24.57,81,97,4.05,AU,1727246333
552,mooloolaba,-26.6833,153.1167,22.39,68,80,6.18,AU,1727246335
553,byron bay,-28.65,153.6167,20.7,69,99,7.23,AU,1727246336
554,fale old settlement,-9.3852,-171.2468,28.45,78,100,5.17,TK,1727246337
555,oroqen zizhiqi,50.5667,123.7167,18.46,32,86,2.43,CN,1727246338
556,north bend,43.4065,-124.2243,14.59,100,100,0.0,US,1727246339
557,sao joao da barra,-21.6403,-41.0511,22.79,87,0,9.16,BR,1727246340
558,cockburn town,21.4612,-71.1419,28.96,77,20,6.96,TC,1727246294
559,al ghayzah,16.2079,52.176,30.11,56,100,3.09,YE,1727246343
560,tindouf,27.6711,-8.1474,23.25,60,0,2.06,DZ,1727246344
561,egilsstadir,65.2653,-14.3948,2.95,93,75,5.66,IS,1727246345
562,kabansk,52.0486,106.6528,10.87,71,100,5.43,RU,1727246347
563,coronel dorrego,-38.7187,-61.2873,10.8,90,99,2.69,AR,1727246348
564,tralee,52.2704,-9.7026,10.14,100,100,3.6,IE,1727246349
565,hami,42.8,93.45,28.07,16,16,1.62,CN,1727246249
566,necochea,-38.5473,-58.7368,7.84,80,15,1.8,AR,1727246127
567,rosignol,6.2833,-57.5333,26.17,78,21,2.34,GY,1727246353
568,kristiansund,63.1115,7.732,8.96,66,75,4.63,NO,1727246355
569,felege neway,6.3,36.8833,22.86,75,10,0.94,ET,1727246356
570,mhangura,-16.8939,30.1683,23.73,32,0,2.18,ZW,1727246357
571,kpandu,6.9954,0.2931,23.87,90,100,2.24,GH,1727246358
572,yongchuan,29.3514,105.8947,27.49,61,100,0.69,CN,1727246359
573,luena,-11.7833,19.9167,25.95,20,100,4.75,AO,1727246360
574,safaga,26.7292,33.9365,29.68,50,0,6.91,EG,1727246361
575,la foa,-21.7108,165.8276,24.55,59,24,3.2,NC,1727246362
576,nagaoka,37.45,138.85,27.03,66,4,1.3,JP,1727246363
577,inarajan village,13.2736,144.7484,31.54,82,42,4.01,GU,1727246364
578,san luis,-33.295,-66.3356,13.95,64,0,2.14,AR,1727246217
579,sussex,41.1834,-74.6663,15.61,79,100,2.06,US,1727246331
580,vel'sk,61.0701,42.0983,14.37,45,20,4.29,RU,1727246368
581,midvagur,62.0511,-7.1939,2.46,93,20,1.03,FO,1727246369
582,san martin,-33.081,-68.4681,15.01,24,0,8.76,AR,1727246370
583,port-cartier,50.0334,-66.8654,7.97,81,91,3.12,CA,1727246275
584,batangafo,7.3008,18.2833,23.98,84,99,0.38,CF,1727246372
585,paita,-5.0892,-81.1144,16.53,93,51,4.34,PE,1727246373
586,ugoofaaru,5.6667,73.0,27.46,82,100,8.08,MV,1727246374
587,mbaiki,3.8678,17.9892,21.44,98,100,0.62,CF,1727246376
588,cape canaveral,28.4058,-80.6048,28.93,80,0,7.72,US,1727246377
589,saudarkrokur,65.7461,-19.6394,1.09,86,11,3.54,IS,1727246378
590,n'zeto,-7.2312,12.8666,22.55,88,100,4.59,AO,1727246379
591,nikol'sk,53.7189,46.0712,15.67,28,77,3.36,RU,1727246380
592,oxelosund,58.6706,17.1015,13.28,94,75,5.66,SE,1727246381
593,taoudenni,22.6783,-3.9836,32.25,33,14,4.03,ML,1727246383
594,bandar labuan,5.2888,115.2692,30.2,79,20,2.68,MY,1727246384
595,isiolo,0.3546,37.5822,26.03,42,10,3.17,KE,1727246385
596,weyburn,49.6668,-103.8511,11.12,87,5,3.6,CA,1727246125
597,island harbour,50.724,-1.2758,12.79,72,100,0.45,GB,1727246387
